time(millisecond),datetime(utc),latitude,longitude,height_above_takeoff(feet),height_above_ground_at_drone_location(feet),ground_elevation_at_drone_location(feet),altitude_above_seaLevel(feet),height_sonar(feet),speed(mph),distance(feet),mileage(feet),satellites,gpslevel,voltage(v),max_altitude(feet),max_ascent(feet),max_speed(mph),max_distance(feet),xSpeed(mph),ySpeed(mph),zSpeed(mph),compass_heading(degrees),pitch(degrees),roll(degrees),isPhoto,isVideo,rc_elevator,rc_aileron,rc_throttle,rc_rudder,rc_elevator(percent),rc_aileron(percent),rc_throttle(percent),rc_rudder(percent),gimbal_heading(degrees),gimbal_pitch(degrees),gimbal_roll(degrees),battery_percent,voltageCell1,voltageCell2,voltageCell3,voltageCell4,voltageCell5,voltageCell6,current(A),battery_temperature(f),altitude(feet),ascent(feet),flycStateRaw,flycState,message
0,2024-11-19 05:27:23,37.4509548012939,126.654291110377,0,Available with any HD 360 subscription,Available with any HD 360 subscription,61.209391394396,0.328084,0,0,0,26,5,0,61.209391394396,0,0,0,0,0,0,56.4,-5.3,0,0,0,1024,1024,1024,1024,0,0,0,0,56.5,0,0,91,4.037,4.008,0,0,0,0,0,74.12,61.209391394396,0,41,Motors_Started,
200,2024-11-19 05:27:23,37.4509547936051,126.65429106991,0,,,61.209391394396,0.328084,0,0.01205216574,0.01205216574,26,5,0,61.209391394396,0,0,0.01205216574,0,0,0,56.5,-5.4,0,0,0,1024,1024,1024,1024,0,0,0,0,56.5,0,0,91,4.037,4.008,0,0,0,0,0,74.12,61.209391394396,0,41,Motors_Started,"비행 중 기체 비행 전. 비전 시스템 및 장애물 회피 꺼짐 (Code: 180059)"
400,2024-11-19 05:27:23,37.4509547880815,126.654291022285,0,,,61.209391394396,0,0,0.025966700306,0.0259928157924,26,5,0,61.209391394396,0,0,0.025966700306,0,0,0,56.8,-5.4,0,0,0,1024,1024,1665,851,0,0,97,-26,56.5,0,0,91,4.037,4.008,0,0,0,0,0,74.12,61.209391394396,0,41,Motors_Started,
600,2024-11-19 05:27:24,37.4509547851131,126.65429098939,0,,,61.209391394396,0,0,0.035536746544,0.035582022136,25,5,0,61.209391394396,0,0,0.035536746544,0,0,0,56.9,-5.4,0,0,0,1024,1024,1684,805,0,0,100,-33,56.5,0,0,91,4.037,4.008,0,0,0,0,0,74.12,61.209391394396,0,41,Motors_Started,"Setting new Return-To-Home altitude to 70m (230 ft). Data Recorder File Index is 111. Setting new Maximum Flight Altitude to 500m (1640 ft)"
800,2024-11-19 05:27:24,37.4509547702131,126.654290952301,0,,,61.209391394396,0,0,0.047169292848,0.047621720684,25,5,0,61.209391394396,0,0,0.047169292848,0,0,0,56.9,-5.4,0,0,0,1024,1024,1684,692,0,0,100,-50,56.5,0,0,91,4.037,4.008,0,0,0,0,0,74.12,61.209391394396,0,41,Motors_Started,
1000,2024-11-19 05:27:24,37.4509547442296,126.654290911213,0,,,61.209391394396,0,0,0.06132874212,0.062836944268,25,5,0,61.209391394396,0,0,0.06132874212,0,0,0,56.9,-5.3,0,0,0,1024,1024,1684,574,0,0,100,-68,56.5,0,0,91,4.037,4.008,0,0,0,0,0,74.12,61.209391394396,0,41,Motors_Started,
1200,2024-11-19 05:27:24,37.4509547264747,126.65429088339,0,,,61.209391394396,0,0,0.071187338236,0.073176511528,25,5,0,61.209391394396,0,0,0.071187338236,0,0,0,56.9,-5.4,0,0,0,1024,1024,1684,400,0,0,100,-95,56.6,0,0,91,4.037,4.008,0,0,0,0,0,74.12,61.209391394396,0,41,Motors_Started,
1400,2024-11-19 05:27:24,37.4509547148794,126.654290865962,0,,,61.209391394396,0,0,0.07749672164,0.079762797828,25,5,8.11,61.209391394396,0,0,0.07749672164,0,0,0,56.9,-5.3,0,0,0,1024,1024,1684,556,0,0,100,-71,56.7,0,0,91,4.037,4.008,0,0,0,0,0.894,74.12,61.209391394396,0,41,Motors_Started,
1600,2024-11-19 05:27:25,37.4509547070321,126.654290854332,0,,,61.209391394396,0,0,0.081748034112,0.084183729728,25,5,8.11,61.209391394396,0,0,0.081748034112,0,0,0,56.8,-5.3,0,0,0,889,364,1684,595,-20,-100,100,-65,56.7,0,0,91,4.037,4.008,0,0,0,0,0.894,74.12,61.209391394396,0,11,AutoTakeoff,
1800,2024-11-19 05:27:25,37.4509547034468,126.654290831557,0,,,61.209391394396,0,0,0.08829724692,0.09090879556,25,5,8.11,61.209391394396,0,0,0.08829724692,0,0,0,56.7,-5.3,-0.1,0,0,941,364,1684,616,-13,-100,100,-62,56.7,0,0,91,4.037,4.008,0,0,0,0,0.894,74.12,61.209391394396,0,11,AutoTakeoff,
2000,2024-11-19 05:27:25,37.4509547570243,126.654290795379,0,,,61.209391394396,0,0,0.09265584286,0.113087930128,25,5,8.11,61.209391394396,0,0,0.09265584286,0,0,0,53.6,-5.2,-5.6,0,0,1024,469,1684,602,0,-84,100,-64,54.3,0,0,91,4.037,4.008,0,0,0,0,0.894,74.12,61.209391394396,0,11,AutoTakeoff,
2200,2024-11-19 05:27:25,37.450955168215,126.654290832059,0,,,61.209391394396,0,0.671082,0.156268705788,0.263486556988,25,5,8.11,61.209391394396,0,0.671082,0.156268705788,0.671082,0,-0.447388,49.3,-4.6,-7.6,0,0,975,364,1684,595,-7,-100,100,-65,50.3,0,0,91,4.037,4.008,0,0,0,0,0.894,74.12,61.209391394396,0,11,AutoTakeoff,
2400,2024-11-19 05:27:25,37.4509561064789,126.654290844631,0.328084,,,61.537475394396,0.328084,1.11847,0.48237534352,0.60583007188,25,5,8.015,61.537475394396,0.328084,1.11847,0.48237534352,1.11847,0,-1.565858,42.6,2.1,-2.9,0,0,980,364,1684,596,-7,-100,100,-65,44,0,0,91,3.987,3.934,0,0,0,0,2.342,74.12,61.537475394396,0.328084,11,AutoTakeoff,
2600,2024-11-19 05:27:26,37.4509571177159,126.654290481526,0.984252,,,62.193643394396,0.984252,1.2079476,0.8645505526,0.98947837812,25,5,8.015,62.193643394396,0.984252,1.2079476,0.8645505526,1.11847,-0.447388,-2.908022,35.7,1.5,-8.7,0,0,981,364,1684,613,-7,-100,100,-62,37.4,0,0,91,3.987,3.934,0,0,0,0,2.342,74.12,62.193643394396,0.984252,11,AutoTakeoff,
2800,2024-11-19 05:27:26,37.4509582437581,126.654289304844,1.968504,,,63.177895394396,2.624672,1.901399,1.36050529288,1.5232776078,25,5,8.015,63.177895394396,1.968504,1.901399,1.36050529288,1.342164,-1.342164,-4.47388,28.2,1.7,-9.5,0,0,987,364,1684,602,-6,-100,100,-64,31.1,0,0,91,3.987,3.934,0,0,0,0,2.342,74.12,63.177895394396,1.968504,11,AutoTakeoff,
3000,2024-11-19 05:27:26,37.4509594456668,126.654287161161,3.608924,,,64.818315394396,4.593176,2.4158952,2.04444560348,2.28342198908,25,5,8.015,64.818315394396,3.608924,2.4158952,2.04444560348,1.342164,-2.013246,-5.816044,21.2,2.8,-9,0,0,1024,490,1684,604,0,-81,100,-64,27,0,0,91,3.987,3.934,0,0,0,0,2.342,74.12,64.818315394396,3.608924,43,Detour,
3200,2024-11-19 05:27:26,37.4509604681436,126.654284186166,5.577428,,,66.786819394396,7.217848,2.908022,2.88045612892,3.22240167792,26,5,8.015,66.786819394396,5.577428,2.908022,2.88045612892,1.11847,-2.684328,-6.263432,19.6,5.1,4.1,0,0,1024,786,1684,604,0,-36,100,-64,25.5,0,0,91,3.987,3.934,0,0,0,0,2.342,74.12,66.786819394396,5.577428,43,Detour,
3400,2024-11-19 05:27:26,37.4509608303325,126.654281511595,7.545932,,,68.755323394396,9.186352,1.3645334,3.5451772788,4.0082678448,25,5,8.036,68.755323394396,7.545932,2.908022,3.5451772788,0.223694,-1.342164,-6.71082,18.1,0,18.3,0,0,1154,364,1684,604,20,-100,100,-64,21.9,0,0,91,3.948,3.883,0,0,0,0,2.365,74.12,68.755323394396,7.545932,43,Detour,
3600,2024-11-19 05:27:27,37.4509605827978,126.654280385853,9.514436,,,70.723827394396,11.154856,0,3.7547901464,4.346620874,25,5,8.036,70.723827394396,9.514436,2.908022,3.7547901464,0,0,-6.71082,12.3,0.2,4.5,0,0,1179,364,1684,605,23,-100,100,-63,17.7,0,0,91,3.948,3.883,0,0,0,0,2.365,74.12,70.723827394396,9.514436,43,Detour,
3800,2024-11-19 05:27:27,37.4509600029181,126.654280075261,11.48294,,,72.692331394396,12.795276,0.223694,3.7172245284,4.5765093328,25,5,8.036,72.692331394396,11.48294,2.908022,3.7547901464,0,0.223694,-6.487126,6.9,-0.8,-2.8,0,0,1265,563,1684,617,37,-70,100,-62,13.3,0,0,91,3.948,3.883,0,0,0,0,2.365,74.12,72.692331394396,11.48294,43,Detour,"홈포인트 업데이트됨 (Code: 3000001)"
4000,2024-11-19 05:27:27,37.4509593126922,126.65427991081,13.451444,,,74.660835394396,14.435696,0.223694,3.6375985416,4.8328085536,25,5,8.036,74.660835394396,13.451444,2.908022,3.7547901464,0,0.223694,-6.487126,0.7,-6.9,-3.2,0,0,1260,554,1684,613,36,-71,100,-62,9.1,0,0,91,3.948,3.883,0,0,0,0,2.365,74.12,74.660835394396,13.451444,43,Detour,
4200,2024-11-19 05:27:27,37.4509589596023,126.65427972404,15.419948,,,76.629339394396,16.4042,0.447388,3.6302166516,4.9725067208,25,5,8.036,76.629339394396,15.419948,2.908022,3.7547901464,0.447388,0,-6.487126,354.9,-12.4,-3.6,0,0,1258,553,1684,610,35,-71,100,-63,5.2,0,0,91,3.948,3.883,0,0,0,0,2.365,74.12,76.629339394396,15.419948,43,Detour,
4400,2024-11-19 05:27:27,37.4509593069641,126.654279421463,17.388452,,,78.597843394396,18.04462,1.565858,3.763615606,5.1266077756,25,5,8.036,78.597843394396,17.388452,2.908022,3.763615606,1.565858,0,-6.487126,350.4,-12.9,-3.3,0,0,1258,553,1684,610,35,-71,100,-63,1.1,0,0,91,3.948,3.883,0,0,0,0,2.365,74.12,78.597843394396,17.388452,43,Detour,
4600,2024-11-19 05:27:28,37.4509604065485,126.654278929737,19.356956,,,80.566347394396,19.68504,2.23694,4.077920078,5.552329574,26,5,7.794,80.566347394396,19.356956,2.908022,4.077920078,2.23694,-0.223694,-6.487126,346.2,-8.8,-3.9,0,0,1258,554,1684,608,35,-71,100,-63,357.1,0,0,91,3.957,3.893,0,0,0,0,6.755,73.94,80.566347394396,19.356956,43,Detour,
4800,2024-11-19 05:27:28,37.450961964236,126.65427810197,20.997376,,,82.206767394396,20.341208,2.5053728,4.5854332176,6.1691603024,26,5,7.794,82.206767394396,20.997376,2.908022,4.5854332176,2.460634,-0.447388,-6.487126,340.8,-5.5,-4.6,0,0,1255,557,1684,607,35,-71,100,-63,352.8,0,0,91,3.957,3.893,0,0,0,0,6.755,73.94,82.206767394396,20.997376,43,Detour,"측면 비행 활성화 끄기. '설정 > 안전' 이동해 이 기능 비활성화 (Code: 30315)"
5000,2024-11-19 05:27:28,37.450963706638,126.654276973903,22.96588,,,84.175271394396,22.96588,2.8185444,5.2270670964,6.8839241048,26,5,7.794,84.175271394396,22.96588,2.908022,5.2270670964,2.684328,-0.894776,-6.487126,336.4,-4.5,-4.5,0,0,1255,556,1684,606,35,-71,100,-63,348.5,0,0,91,3.957,3.893,0,0,0,0,6.755,73.94,84.175271394396,22.96588,43,Detour,
5200,2024-11-19 05:27:28,37.4509655047882,126.654275528324,24.934384,,,86.143775394396,24.934384,2.7066974,5.9682416608,7.6622049696,26,5,7.794,86.143775394396,24.934384,2.908022,5.9682416608,2.460634,-1.11847,-6.487126,331.8,-3.8,-5,0,0,1204,439,1684,594,27,-89,100,-65,344.2,0,0,91,3.957,3.893,0,0,0,0,6.755,73.94,86.143775394396,24.934384,43,Detour,
5400,2024-11-19 05:27:28,37.4509670628441,126.654273741255,26.902888,,,88.112279394396,26.902888,2.8632832,6.7322180632,8.4310042068,26,5,7.794,88.112279394396,26.902888,2.908022,6.7322180632,2.23694,-1.789552,-6.487126,316.9,-3.7,-5.2,0,0,1204,439,1684,579,27,-89,100,-67,339.9,0,0,91,3.957,3.893,0,0,0,0,6.755,73.94,88.112279394396,26.902888,43,Detour,
5600,2024-11-19 05:27:29,37.4509684740962,126.654271692206,28.871392,,,90.080783394396,27.559056,2.684328,7.517880818,9.2167325784,26,5,7.817,90.080783394396,28.871392,2.908022,7.517880818,1.789552,-2.013246,-6.487126,307.3,-0.8,-4.3,0,0,1205,424,1684,573,27,-91,100,-68,335.4,0,0,91,3.942,3.881,0,0,0,0,6.098,74.12,90.080783394396,28.871392,43,Detour,
5800,2024-11-19 05:27:29,37.4509696127896,126.654269564101,30.839896,,,92.049287394396,27.559056,2.4158952,8.2552824164,9.9600396888,26,5,7.817,92.049287394396,30.839896,2.908022,8.2552824164,1.342164,-2.013246,-6.487126,301.4,1,-5.5,0,0,1205,424,1684,571,27,-91,100,-69,330.6,0,0,91,3.942,3.881,0,0,0,0,6.098,74.12,92.049287394396,30.839896,43,Detour,
6000,2024-11-19 05:27:29,37.4509703488362,126.65426746511,32.8084,,,94.017791394396,27.559056,1.9908766,8.8928152452,10.624672256,26,5,7.817,94.017791394396,32.8084,2.908022,8.8928152452,0.894776,-1.789552,-6.487126,296.4,-0.5,-4.2,0,0,1204,424,1684,558,27,-91,100,-71,325.6,0,0,91,3.942,3.881,0,0,0,0,6.098,74.12,94.017791394396,32.8084,43,Detour,
6200,2024-11-19 05:27:29,37.4509707687935,126.654265427791,34.776904,,,95.986295394396,27.559056,1.901399,9.4485567328,11.2343507532,26,5,7.817,95.986295394396,34.776904,2.908022,9.4485567328,0.671082,-1.789552,-6.487126,291.3,-1.8,-3.2,0,0,1201,426,1684,525,27,-91,100,-76,320.4,0,0,91,3.942,3.881,0,0,0,0,6.098,74.12,95.986295394396,34.776904,43,Detour,
6400,2024-11-19 05:27:29,37.4509710100091,126.654263483153,36.745408,,,97.954799394396,27.559056,1.6329662,9.9501643604,11.8044295116,26,5,7.817,97.954799394396,36.745408,2.908022,9.9501643604,0.447388,-1.565858,-6.487126,286.1,-2.8,-3.8,0,0,1199,428,1684,501,27,-90,100,-79,314.9,0,0,91,3.942,3.881,0,0,0,0,6.098,74.12,97.954799394396,36.745408,43,Detour,
6600,2024-11-19 05:27:30,37.4509711214336,126.654261596081,38.713912,,,99.923303394396,27.559056,1.5882274,10.417979336,12.352526642,26,5,7.822,99.923303394396,38.713912,2.908022,10.417979336,0.223694,-1.565858,-6.487126,280.3,-3.3,-5.1,0,0,1199,428,1684,494,27,-90,100,-80,308.7,0,0,91,3.934,3.874,0,0,0,0,6.031,74.12,99.923303394396,38.713912,43,Detour,
6800,2024-11-19 05:27:30,37.4509710324223,126.65425971563,40.682416,,,101.8918073944,27.559056,1.565858,10.8516079588,12.8981631424,26,5,7.822,101.8918073944,40.682416,2.908022,10.8516079588,0,-1.565858,-6.487126,273.4,-2.6,-5.2,0,0,1197,428,1684,491,26,-90,100,-81,301.8,0,0,91,3.934,3.874,0,0,0,0,6.031,74.12,101.8918073944,40.682416,43,Detour,
7000,2024-11-19 05:27:30,37.450970700316,126.654257911187,42.65092,,,103.8603113944,27.559056,1.565858,11.2301184696,13.4346789076,26,5,7.822,103.8603113944,42.65092,2.908022,11.2301184696,0,-1.565858,-6.71082,266.2,-2.9,-4.4,0,0,1241,552,1684,490,33,-72,100,-81,294.3,0,0,91,3.934,3.874,0,0,0,0,6.031,74.12,103.8603113944,42.65092,43,Detour,
7200,2024-11-19 05:27:30,37.4509701663539,126.654256227498,44.619424,,,105.8288153944,27.559056,1.5882274,11.5546591624,13.959810158,26,5,7.822,105.8288153944,44.619424,2.908022,11.5546591624,-0.223694,-1.565858,-6.71082,258.5,-3.4,-3.7,0,0,1684,679,1684,475,100,-52,100,-83,286.6,0,0,91,3.934,3.874,0,0,0,0,6.031,74.12,105.8288153944,44.619424,43,Detour,
7400,2024-11-19 05:27:30,37.4509694567217,126.654254675982,46.587928,,,107.7973193944,27.559056,1.4092722,11.8303481476,14.4784453452,26,5,7.822,107.7973193944,46.587928,2.908022,11.8303481476,-0.447388,-1.342164,-6.487126,250.9,6.1,-2.4,0,0,1684,1024,1684,476,100,0,100,-83,279.1,0,0,91,3.934,3.874,0,0,0,0,6.031,74.12,107.7973193944,46.587928,43,Detour,
7600,2024-11-19 05:27:31,37.4509686382298,126.654253344537,48.228348,,,109.4377393944,27.559056,1.4987498,12.0474413304,14.966207828,26,5,7.782,109.4377393944,48.228348,2.908022,12.0474413304,-0.671082,-1.342164,-5.59235,242.6,-20.4,3,0,0,1684,1025,1684,535,100,0,100,-74,272.4,0,0,91,3.928,3.858,0,0,0,0,6.329,74.3,109.4377393944,48.228348,43,Detour,
7800,2024-11-19 05:27:31,37.4509674835639,126.654250957489,49.868768,,,111.0781593944,27.559056,3.4001488,12.516732684,15.7758207148,26,5,7.782,111.0781593944,49.868768,3.4001488,12.516732684,-1.342164,-3.131716,-5.144962,234.1,-29.6,9.7,0,0,1684,1267,1684,782,100,37,100,-37,265.4,0,0,91,3.928,3.858,0,0,0,0,6.329,74.3,111.0781593944,49.868768,43,Detour,
8000,2024-11-19 05:27:31,37.4509659362011,126.654246757251,51.181104,,,112.3904953944,27.559056,4.7423128,13.4736880952,17.1170281068,26,5,7.782,112.3904953944,51.181104,4.7423128,13.4736880952,-1.565858,-4.47388,-4.47388,228.9,-1.3,3.3,0,0,1684,1283,1684,927,100,39,100,-15,258.7,0,0,91,3.928,3.858,0,0,0,0,6.329,74.3,112.3904953944,51.181104,43,Detour,
8200,2024-11-19 05:27:31,37.4509644874655,126.654242411083,52.49344,,,113.7028313944,27.559056,4.1830778,14.5414374732,18.4823168644,26,5,7.782,113.7028313944,52.49344,4.7423128,14.5414374732,-1.11847,-4.026492,-4.026492,224.6,-1,-2.5,0,0,1684,1272,1684,981,100,38,100,-7,254.7,0,0,91,3.928,3.858,0,0,0,0,6.329,74.3,113.7028313944,52.49344,43,Detour,
8400,2024-11-19 05:27:31,37.4509629198533,126.654238339397,53.805776,,,115.0151673944,27.559056,4.4067718,15.5691934116,19.7930452528,26,5,7.782,115.0151673944,53.805776,4.7423128,15.5691934116,-1.789552,-4.026492,-4.026492,222.8,-28.4,-1.4,0,0,1684,1330,1684,946,100,46,100,-12,253.3,1.4,0,91,3.928,3.858,0,0,0,0,6.329,74.3,115.0151673944,53.805776,43,Detour,
8600,2024-11-19 05:27:32,37.4509599830525,126.654233046353,55.118112,,,116.3275033944,27.559056,7.0687304,16.9238522476,21.6634521368,26,5,7.772,116.3275033944,55.118112,7.0687304,16.9238522476,-4.026492,-5.816044,-4.921268,222,-33.9,-0.6,0,0,1684,1334,1684,950,100,47,100,-11,252.7,4.2,0,91,3.883,3.844,0,0,0,0,5.862,74.48,116.3275033944,55.118112,43,Detour,
8800,2024-11-19 05:27:32,37.4509552589408,126.654225940228,56.758532,,,117.9679233944,27.559056,9.842536,18.8769034912,24.3480650836,26,5,7.772,117.9679233944,56.758532,9.842536,18.8769034912,-6.263432,-7.605596,-5.368656,221.1,-29.4,-0.7,0,0,1684,1340,1684,960,100,48,100,-10,252.4,7.1,0,91,3.883,3.844,0,0,0,0,5.862,74.48,117.9679233944,56.758532,43,Detour,
9000,2024-11-19 05:27:32,37.4509490944195,126.654217380107,58.398952,,,119.6083433944,27.559056,11.743935,21.4568248336,27.6956045608,25,5,7.772,119.6083433944,58.398952,11.743935,21.4568248336,-7.605596,-8.94776,-5.59235,219.8,-26.5,4.7,0,0,1684,1339,1583,610,100,48,85,-63,252.3,10.1,0,91,3.883,3.844,0,0,0,0,5.862,74.48,119.6083433944,58.398952,43,Detour,
9200,2024-11-19 05:27:32,37.4509420394763,126.65420746895,60.039372,,,121.2487633944,27.559056,13.3545318,24.6696530204,31.5513133456,26,5,7.772,121.2487633944,60.039372,13.3545318,24.6696530204,-8.500372,-10.289924,-5.59235,217.8,-20,13.9,0,0,1684,1342,364,1684,100,48,-100,100,252.1,13.1,0,91,3.883,3.844,0,0,0,0,5.862,74.48,121.2487633944,60.039372,43,Detour,
9400,2024-11-19 05:27:32,37.4509347402816,126.654196280871,61.679792,,,122.8891833944,27.559056,14.4058936,28.4253289936,35.745736052,25,5,7.772,122.8891833944,61.679792,14.4058936,28.4253289936,-8.500372,-11.632088,-5.59235,218.5,-15.5,13.7,0,0,1684,1420,364,1549,100,60,-100,80,251.4,15.5,0,91,3.883,3.844,0,0,0,0,5.862,74.48,122.8891833944,61.679792,43,Detour,"조종기 신호 간섭 조종기가 신호 간섭 강한 환경에 있음. 비행경로 수동 조정 또는 RTH 실행 (Code: 80014)"
9600,2024-11-19 05:27:33,37.4509275510562,126.654184331445,63.320212,,,124.5296033944,27.559056,14.4506324,32.4866808296,40.08858396,26,5,7.7,124.5296033944,63.320212,14.4506324,32.4866808296,-8.276678,-11.855782,-4.697574,222.3,-8.1,-3.1,0,0,1684,1419,364,1338,100,60,-100,48,255.4,16.3,0,91,3.887,3.825,0,0,0,0,8.197,74.48,124.5296033944,63.320212,43,Detour,
9800,2024-11-19 05:27:33,37.4509203864778,126.654173007039,64.632548,,,125.8419393944,27.559056,13.869028,36.439633712,44.282809816,26,5,7.7,125.8419393944,64.632548,14.4506324,36.439633712,-8.500372,-10.961006,-3.579104,227.4,0.2,-16,0,0,1684,1355,364,1279,100,50,-100,39,261.6,16.3,0,91,3.887,3.825,0,0,0,0,8.197,74.48,125.8419393944,64.632548,43,Detour,
10000,2024-11-19 05:27:33,37.4509130446799,126.654162738928,65.288716,,,126.4981073944,27.559056,13.309793,40.1820879,48.285106532,26,5,7.7,126.4981073944,65.288716,14.4506324,40.1820879,-8.724066,-10.06623,-1.789552,232.3,-18.2,-0.9,0,0,1684,1343,364,1253,100,48,-100,35,265.8,16.3,0,91,3.887,3.825,0,0,0,0,8.197,74.48,126.4981073944,65.288716,43,Detour,
10200,2024-11-19 05:27:33,37.4509056238221,126.654152657495,65.6168,,,126.8261913944,27.559056,13.4887482,43.933072272,52.267390124,26,5,7.7,126.8261913944,65.6168,14.4506324,43.933072272,-8.724066,-10.289924,0,233.4,-27,9.9,0,0,1684,1332,364,1179,100,47,-100,23,268.1,16.3,0,91,3.887,3.825,0,0,0,0,8.197,74.48,126.8261913944,65.6168,43,Detour,
10400,2024-11-19 05:27:34,37.4508983380818,126.65414209518,65.288716,,,126.4981073944,27.559056,13.869028,47.825788932,56.320211776,26,5,7.7,126.8261913944,65.6168,14.4506324,47.825788932,-8.500372,-10.961006,1.789552,234.8,-28.2,10.4,0,0,1684,1299,364,1125,100,42,-100,15,269.4,16.3,0,91,3.887,3.825,0,0,0,0,8.197,74.48,126.4981073944,65.288716,43,Detour,"홈포인트 업데이트됨 (Code: 3000001)"
10600,2024-11-19 05:27:34,37.4508912594682,126.654130883177,64.304464,,,125.5138553944,27.559056,14.2716772,51.877298248,60.469490124,25,5,7.908,126.8261913944,65.6168,14.4506324,51.877298248,-8.276678,-11.632088,3.579104,236.1,-28.2,8.9,0,0,1684,1108,1024,1024,100,13,0,0,270,16.3,0,91,3.959,3.916,0,0,0,0,4.704,74.66,125.5138553944,64.304464,43,Detour,
10800,2024-11-19 05:27:34,37.4508844250802,126.65411895542,62.992128,,,124.2015193944,27.559056,14.6966958,56.086287884,64.729988948,24,5,7.908,126.8261913944,65.6168,14.6966958,56.086287884,-8.052984,-12.30317,5.368656,237.3,-29.2,6.3,0,0,1024,1024,1024,1024,0,0,0,0,270.4,16.3,0,91,3.959,3.916,0,0,0,0,4.704,74.66,124.2015193944,62.992128,43,Detour,
11000,2024-11-19 05:27:34,37.4508776953972,126.654106202216,61.351708,,,122.5610993944,27.559056,15.4572554,60.496721096,69.165684628,22,5,7.908,126.8261913944,65.6168,15.4572554,60.496721096,-8.052984,-13.197946,5.816044,237.9,-28.6,5,0,0,1024,1024,1024,1024,0,0,0,0,270.5,16.3,0,91,3.959,3.916,0,0,0,0,4.704,74.66,122.5610993944,61.351708,43,Detour,
11200,2024-11-19 05:27:34,37.4508710397323,126.654092218871,60.039372,,,121.2487633944,27.559056,16.1283374,65.211944344,73.888125724,20,5,7.908,126.8261913944,65.6168,16.1283374,65.211944344,-7.82929,-14.092722,3.131716,238.8,5.6,-0.2,0,0,1024,1024,1024,1024,0,0,0,0,270.6,17.6,0,91,3.959,3.916,0,0,0,0,4.704,74.66,121.2487633944,60.039372,43,Detour,
11400,2024-11-19 05:27:34,37.4508653908946,126.654079395351,59.05512,,,120.2645113944,27.559056,13.6005952,69.458991724,78.135829272,20,5,7.908,126.8261913944,65.6168,16.1283374,69.458991724,-6.263432,-12.079476,1.342164,238.7,23.2,-1.9,0,0,1024,1024,1024,1024,0,0,0,0,270.6,20.3,0,91,3.959,3.916,0,0,0,0,4.704,74.66,120.2645113944,59.05512,43,Detour,
11600,2024-11-19 05:27:35,37.4508613291299,126.65406918766,58.727036,,,119.9364273944,27.559056,10.2004464,72.765422276,81.442915992,20,5,7.857,126.8261913944,65.6168,16.1283374,72.765422276,-4.47388,-9.171454,0.447388,237.3,27.3,-6.7,0,0,1024,1024,1024,1024,0,0,0,0,270.6,23.2,0,91,3.945,3.888,0,0,0,0,4.554,74.84,119.9364273944,58.727036,43,Detour,
11800,2024-11-19 05:27:35,37.4508585306945,126.654061866917,58.727036,,,119.9364273944,27.559056,7.0016222,75.117128388,83.796262524,20,5,7.857,126.8261913944,65.6168,16.1283374,75.117128388,-3.131716,-6.263432,0.223694,237.3,31,-6,0,0,1024,1024,1024,1024,0,0,0,0,270.6,25,0,91,3.945,3.888,0,0,0,0,4.554,74.84,119.9364273944,58.727036,43,Detour,
12000,2024-11-19 05:27:35,37.4508567507544,126.654057442491,58.398952,,,119.6083433944,27.559056,4.1159696,76.55348014,85.23294236,20,5,7.857,126.8261913944,65.6168,16.1283374,76.55348014,-2.013246,-3.579104,0.223694,238.4,32.3,-2.4,0,0,1024,1024,1024,1024,0,0,0,0,270.6,23,0,91,3.945,3.888,0,0,0,0,4.554,74.84,119.6083433944,58.398952,43,Detour,
12200,2024-11-19 05:27:35,37.450855908909,126.654055574908,58.070868,,,119.2802593944,27.559056,1.4316416,77.17519932,85.854989624,20,5,7.857,126.8261913944,65.6168,16.1283374,77.17519932,-0.894776,-1.11847,0.223694,239.3,17.9,1,0,0,1024,1024,1024,1024,0,0,0,0,270.6,20.1,0,91,3.945,3.888,0,0,0,0,4.554,74.84,119.2802593944,58.070868,43,Detour,
12400,2024-11-19 05:27:35,37.4508557385044,126.654055140149,58.070868,,,119.2802593944,27.559056,0.6263432,77.315619272,85.995409576,20,5,7.857,126.8261913944,65.6168,16.1283374,77.315619272,-0.447388,-0.447388,0,239.3,5,1.7,0,0,1024,1024,1024,1024,0,0,0,0,270.6,17.2,0,91,3.945,3.888,0,0,0,0,4.554,74.84,119.2802593944,58.070868,43,Detour,
12600,2024-11-19 05:27:36,37.4508558346167,126.654055109718,57.742784,,,118.9521753944,27.559056,0.223694,77.307089088,86.0318269,20,5,7.847,126.8261913944,65.6168,16.1283374,77.315619272,-0.223694,0,0,239.2,2.6,0.7,0,0,1684,1024,1024,1024,100,0,0,0,270.6,14.2,0,91,3.946,3.889,0,0,0,0,4.533,74.84,118.9521753944,57.742784,43,Detour,
12800,2024-11-19 05:27:36,37.450856111054,126.654055218019,57.742784,,,118.9521753944,27.559056,0,77.232285936,86.137469948,19,5,7.847,126.8261913944,65.6168,16.1283374,77.315619272,0,0,0,239.1,-13.6,0.6,0,0,1684,1024,1024,1024,100,0,0,0,270.6,11.3,0,91,3.946,3.889,0,0,0,0,4.533,74.84,118.9521753944,57.742784,43,Detour,
13000,2024-11-19 05:27:36,37.4508560556089,126.654054483241,57.742784,,,118.9521753944,27.559056,1.4987498,77.429792504,86.351052632,18,5,7.847,126.8261913944,65.6168,16.1283374,77.429792504,-0.671082,-1.342164,0,239.4,-29.2,-0.9,0,0,1684,1024,1024,1024,100,0,0,0,270.6,8.3,0,91,3.946,3.889,0,0,0,0,4.533,74.84,118.9521753944,57.742784,43,Detour,
13200,2024-11-19 05:27:36,37.4508550598331,126.654051841988,57.742784,,,118.9521753944,27.559056,3.802798,78.276249224,87.19816552,18,5,7.847,126.8261913944,65.6168,16.1283374,78.276249224,-1.789552,-3.35541,0,239.6,-30.2,-1.9,0,0,1684,1024,1536,570,100,0,78,-69,270.6,5.4,0,91,3.946,3.889,0,0,0,0,4.533,74.84,118.9521753944,57.742784,43,Detour,
13400,2024-11-19 05:27:36,37.450853007028,126.654047220232,58.070868,,,119.2802593944,27.559056,5.7265664,79.80971384,88.73195822,18,5,7.847,126.8261913944,65.6168,16.1283374,79.80971384,-2.908022,-4.921268,0,239.4,-29.5,-1.1,0,0,1684,909,1684,364,100,-17,100,-100,270.2,2.4,0,91,3.946,3.889,0,0,0,0,4.533,74.84,119.2802593944,58.070868,43,Detour,
13600,2024-11-19 05:27:37,37.4508500015987,126.654040785799,58.070868,,,119.2802593944,27.559056,7.82929,81.969490812,90.894359864,18,5,7.817,126.8261913944,65.6168,16.1283374,81.969490812,-4.026492,-6.71082,-0.223694,237.2,-29.6,0.9,0,0,1684,1024,1684,364,100,0,100,-100,267.1,-0.4,0,91,3.926,3.868,0,0,0,0,5.09,75.02,119.2802593944,58.070868,43,Detour,
13800,2024-11-19 05:27:37,37.4508460816851,126.654032228808,58.398952,,,119.6083433944,27.559056,10.3122934,84.829070956,93.755908512,18,5,7.817,126.8261913944,65.6168,16.1283374,84.829070956,-5.144962,-8.94776,-1.789552,231.4,-27.6,2.3,0,0,1684,1073,1684,364,100,7,100,-100,256.5,-4.7,0,91,3.926,3.868,0,0,0,0,5.09,75.02,119.6083433944,58.398952,43,Detour,
14000,2024-11-19 05:27:37,37.450841281315,126.654021923563,59.05512,,,120.2645113944,27.559056,11.5426104,88.286420148,97.216538544,18,5,7.817,126.8261913944,65.6168,16.1283374,88.286420148,-6.039738,-9.842536,-3.802798,224.9,-4.4,-6.7,0,0,1684,1085,1684,364,100,9,100,-100,252.4,-5.4,0,91,3.926,3.868,0,0,0,0,5.09,75.02,120.2645113944,59.05512,43,Detour,
14200,2024-11-19 05:27:37,37.4508362045504,126.65401218702,60.367456,,,121.5768473944,27.559056,10.6030956,91.646656476,100.5905544,18,5,7.817,126.8261913944,65.6168,16.1283374,91.646656476,-6.039738,-8.724066,-5.368656,216.1,-1.3,-6.9,0,0,1684,1024,1684,591,100,0,100,-66,244,-6,0,91,3.926,3.868,0,0,0,0,5.09,75.02,121.5768473944,60.367456,43,Detour,
14400,2024-11-19 05:27:37,37.4508310182492,126.654003676323,62.007876,,,123.2172673944,27.559056,9.6859502,94.714241876,103.698166048,18,5,7.817,126.8261913944,65.6168,16.1283374,94.714241876,-6.263432,-7.381902,-6.263432,209.4,-11,-18.1,0,0,1684,1024,1684,653,100,0,100,-56,235.7,-6.1,0,91,3.926,3.868,0,0,0,0,5.09,75.02,123.2172673944,62.007876,43,Detour,
14600,2024-11-19 05:27:38,37.4508248420148,126.653996757686,63.97638,,,125.1857713944,27.559056,9.9320136,97.5557774,106.713914176,18,5,7.665,126.8261913944,65.6168,16.1283374,97.5557774,-8.052984,-5.816044,-6.263432,204.4,-22.9,-21.5,0,0,1684,1237,1684,677,100,32,100,-53,229.6,-6.1,0,90,3.915,3.848,0,0,0,0,7.101,75.02,125.1857713944,63.97638,43,Detour,
14800,2024-11-19 05:27:38,37.4508169296601,126.653991525704,65.6168,,,126.8261913944,27.559056,11.3412858,100.299215808,109.974084884,19,5,7.665,126.8261913944,65.6168,16.1283374,100.299215808,-10.513618,-4.250186,-6.263432,198.9,-28.3,-14,0,0,1684,1406,1684,763,100,58,100,-40,225.5,-6.1,0,90,3.915,3.848,0,0,0,0,7.101,75.02,126.8261913944,65.6168,43,Detour,
15000,2024-11-19 05:27:38,37.4508072541135,126.653987373391,67.585304,,,128.7946953944,27.559056,13.2426848,103.139110912,113.703415712,19,5,7.665,128.7946953944,67.585304,16.1283374,103.139110912,-12.750558,-3.579104,-6.263432,192.8,-30.2,-4.1,0,0,1684,1684,1684,901,100,100,100,-19,222.4,-6.1,0,90,3.915,3.848,0,0,0,0,7.101,75.02,128.7946953944,67.585304,43,Detour,
15200,2024-11-19 05:27:38,37.450796122602,126.653983619643,69.225724,,,130.4351153944,27.559056,14.763804,106.225725184,117.907812172,19,5,7.665,130.4351153944,69.225724,16.1283374,106.225725184,-14.316416,-3.579104,-6.039738,186.9,-28.7,9.2,0,0,1684,1684,1684,902,100,100,100,-18,220.5,-6.1,0,90,3.915,3.848,0,0,0,0,7.101,75.02,130.4351153944,69.225724,43,Detour,
15400,2024-11-19 05:27:38,37.4507837220214,126.653979230634,70.866144,,,132.0755353944,27.559056,16.5086172,109.801184616,122.607287388,18,5,7.665,132.0755353944,70.866144,16.5086172,109.801184616,-15.882274,-4.47388,-6.039738,185.9,-27.7,11.3,0,0,1684,1684,1684,1024,100,100,100,0,219.7,-6.1,0,90,3.915,3.848,0,0,0,0,7.101,75.02,132.0755353944,70.866144,43,Detour,"비행 중"
15600,2024-11-19 05:27:39,37.4507702705197,126.653973774323,72.17848,,,133.3878713944,27.559056,17.9626282,113.934714932,127.763455532,19,5,7.665,133.3878713944,72.17848,17.9626282,113.934714932,-17.000744,-5.816044,-6.263432,184.6,-25.4,14.8,0,0,1684,1684,1684,1024,100,100,100,0,219.4,-6.1,0,90,3.915,3.848,0,0,0,0,7.101,75.02,133.3878713944,72.17848,43,Detour,
15800,2024-11-19 05:27:39,37.4507559445584,126.653967264546,74.146984,,,135.3563753944,27.559056,18.902143,118.584977548,133.319886156,19,5,7.646,135.3563753944,74.146984,18.902143,118.584977548,-17.671826,-6.71082,-6.263432,184.6,-25.2,15,0,0,1684,1684,1024,1024,100,100,0,0,219.2,-6.1,0,90,3.84,3.737,0,0,0,0,7.872,75.02,135.3563753944,74.146984,43,Detour,
16000,2024-11-19 05:27:39,37.4507408908202,126.653960026077,76.115488,,,137.3248793944,27.559056,19.685072,123.64173624,139.198823352,18,5,7.646,137.3248793944,76.115488,19.685072,123.64173624,-18.342908,-7.158208,-6.71082,186.8,-12.8,8.6,0,0,1684,1684,1213,1684,100,100,29,100,219.2,-6.1,0,90,3.84,3.737,0,0,0,0,7.872,75.02,137.3248793944,76.115488,43,Detour,
16200,2024-11-19 05:27:39,37.4507258738684,126.653952651486,78.083992,,,139.2933833944,27.559056,19.1929452,128.7893742,145.079400968,18,5,7.646,139.2933833944,78.083992,19.685072,128.7893742,-17.89552,-6.934514,-6.71082,187.7,-2.5,5,0,0,1684,1684,1607,1684,100,100,88,100,219.3,-5.7,0,90,3.84,3.737,0,0,0,0,7.872,75.02,139.2933833944,78.083992,43,Detour,
16400,2024-11-19 05:27:39,37.4507115643384,126.653945739885,79.724412,,,140.9338033944,27.559056,18.1863222,133.726054148,150.67093658,18,5,7.646,140.9338033944,79.724412,19.685072,133.726054148,-17.000744,-6.487126,-5.368656,189.2,2.9,-2.8,0,0,1684,1684,1622,1684,100,100,91,100,223,-3.7,0,90,3.84,3.737,0,0,0,0,7.872,75.02,140.9338033944,79.724412,43,Detour,
16600,2024-11-19 05:27:40,37.4506982066274,126.65393956209,80.708664,,,141.9180553944,27.559056,16.7099418,138.320542484,155.862537796,18,5,7.646,141.9180553944,80.708664,19.685072,138.320542484,-15.65858,-5.816044,-4.250186,198,15.9,10.7,0,0,1684,1684,1684,1684,100,100,100,100,230.8,-2.2,0,90,3.84,3.737,0,0,0,0,7.872,75.02,141.9180553944,80.708664,43,Detour,
16800,2024-11-19 05:27:40,37.450686719109,126.653933507662,82.021,,,143.2303913944,27.559056,13.9137668,142.460962564,160.405845028,18,5,7.563,143.2303913944,82.021,19.685072,142.460962564,-12.526864,-6.039738,-4.921268,208.5,16,21.2,0,0,1684,1684,1684,1684,100,100,100,100,239.9,-1.7,0,90,3.937,3.893,0,0,0,0,9.829,75.2,143.2303913944,82.021,43,Detour,
17000,2024-11-19 05:27:40,37.4506778022145,126.653926730866,83.66142,,,144.8708113944,27.559056,11.855782,146.125004676,164.205385832,17,4,7.563,144.8708113944,83.66142,19.685072,146.125004676,-9.618842,-6.934514,-5.816044,215,5.3,18.3,0,0,1684,1684,1684,1385,100,100,100,55,249.3,-1.6,0,90,3.937,3.893,0,0,0,0,9.829,75.2,144.8708113944,83.66142,43,Detour,
17200,2024-11-19 05:27:40,37.4506707466373,126.653919261657,85.30184,,,146.5112313944,27.559056,10.9162672,149.46850872,167.567918748,17,4,7.563,146.5112313944,85.30184,19.685072,149.46850872,-7.82929,-7.605596,-6.263432,223.3,0.4,16.5,0,0,1684,1684,1684,1102,100,100,100,12,258.5,-1.6,0,90,3.937,3.893,0,0,0,0,9.829,75.2,146.5112313944,85.30184,43,Detour,
17400,2024-11-19 05:27:40,37.4506649252789,126.653911197072,86.614176,,,147.8235673944,27.559056,10.8044202,152.624348716,170.72507108,16,4,7.563,147.8235673944,86.614176,19.685072,152.624348716,-6.934514,-8.276678,-6.263432,229.9,-23.1,11.7,0,0,1684,1684,1684,891,100,100,100,-20,264.5,-1.6,0,90,3.937,3.893,0,0,0,0,9.829,75.2,147.8235673944,86.614176,43,Detour,
17600,2024-11-19 05:27:41,37.4506591748547,126.653901913633,88.58268,,,149.7920713944,27.559056,12.4373864,156.017393444,174.135832344,17,4,7.563,149.7920713944,88.58268,19.685072,156.017393444,-7.605596,-9.842536,-6.039738,234.2,-33.5,2.3,0,0,1684,1684,1684,364,100,100,100,-100,266.5,-1.6,0,90,3.937,3.893,0,0,0,0,9.829,75.2,149.7920713944,88.58268,43,Detour,
17800,2024-11-19 05:27:41,37.4506525663336,126.653890746639,91.86352,,,153.0729113944,27.559056,14.3611548,160.021986748,178.169953208,17,4,7.73,153.0729113944,91.86352,19.685072,160.021986748,-8.724066,-11.408394,-6.71082,234.4,-31.4,1.9,0,0,1684,1684,1684,680,100,100,100,-52,266.8,-1.6,0,90,3.878,3.793,0,0,0,0,4.878,75.38,153.0729113944,91.86352,43,Detour,
18000,2024-11-19 05:27:41,37.4506450925879,126.653878010637,95.472444,,,156.6818353944,27.559056,16.1507068,164.5751365,182.757223696,17,4,7.73,156.6818353944,95.472444,19.685072,164.5751365,-9.618842,-12.974252,-6.71082,236.9,-19.2,-12.6,0,0,1684,1684,1684,769,100,100,100,-39,262.4,-1.6,0,90,3.878,3.793,0,0,0,0,4.878,75.38,156.6818353944,95.472444,43,Detour,
18200,2024-11-19 05:27:41,37.4506366250455,126.653865404864,98.097116,,,159.3065073944,27.559056,15.8375352,169.351055288,187.540032248,17,4,7.73,159.3065073944,98.097116,19.685072,169.351055288,-10.513618,-11.855782,-7.381902,225.5,11.2,-22.9,0,0,1684,1684,1684,952,100,100,100,-11,255.8,-1.6,0,90,3.878,3.793,0,0,0,0,4.878,75.38,159.3065073944,98.097116,43,Detour,
18400,2024-11-19 05:27:41,37.4506277051011,126.65385492752,100.721788,,,161.9311793944,27.559056,14.7190652,173.791672228,191.98983554,17,4,7.73,161.9311793944,100.721788,19.685072,173.791672228,-10.737312,-10.06623,-6.71082,219.9,-14.1,-12.8,0,0,1684,1684,1684,1024,100,100,100,0,252.3,-1.6,0,90,3.878,3.793,0,0,0,0,4.878,75.38,161.9311793944,100.721788,43,Detour,
18600,2024-11-19 05:27:42,37.4506184635547,126.653845199652,102.690292,,,163.8996833944,27.559056,15.2335614,178.15617368,196.383864552,17,4,7.73,163.8996833944,102.690292,19.685072,178.15617368,-11.632088,-9.842536,-5.816044,219.7,-28.8,-1.2,0,0,1684,1684,1684,1024,100,100,100,0,251.1,-1.6,0,90,3.878,3.793,0,0,0,0,4.878,75.38,163.8996833944,102.690292,43,Detour,
18800,2024-11-19 05:27:42,37.4506083885498,126.653834889574,104.330712,,,165.5401033944,27.559056,16.8441582,182.854008476,201.120085176,17,4,7.59,165.5401033944,104.330712,19.685072,182.854008476,-12.974252,-10.737312,-6.039738,219.2,-31,0.9,0,0,1684,1684,1684,948,100,100,100,-12,250.8,-1.6,0,90,3.914,3.824,0,0,0,0,8.911,75.38,165.5401033944,104.330712,43,Detour,
19000,2024-11-19 05:27:42,37.4505972763653,126.653823515258,106.299216,,,167.5086073944,27.559056,18.5889714,188.038391844,206.344166708,19,4,7.59,167.5086073944,106.299216,19.685072,188.038391844,-14.316416,-11.855782,-6.039738,219.4,-30,0,0,0,1684,1684,1684,795,100,100,100,-35,250.7,-1.6,0,90,3.914,3.824,0,0,0,0,8.911,75.38,167.5086073944,106.299216,43,Detour,
19200,2024-11-19 05:27:42,37.4505851547236,126.653811176548,108.26772,,,169.4771113944,27.559056,20.1995682,193.681764728,212.030190512,20,4,7.59,169.4771113944,108.26772,20.1995682,193.681764728,-15.65858,-12.750558,-6.263432,219.7,-29.1,-1.3,0,0,1684,1684,1684,744,100,100,100,-42,250.6,-1.6,0,90,3.914,3.824,0,0,0,0,8.911,75.38,169.4771113944,108.26772,43,Detour,
19400,2024-11-19 05:27:42,37.4505720867115,126.653798243281,110.236224,,,171.4456153944,27.559056,21.1614524,199.691935524,218.093510916,20,4,7.59,171.4456153944,110.236224,21.1614524,199.691935524,-16.553356,-13.197946,-6.263432,219.7,-25.4,-3.1,0,0,1684,1684,1684,678,100,100,100,-52,249.8,-1.6,0,90,3.914,3.824,0,0,0,0,8.911,75.38,171.4456153944,110.236224,43,Detour,
19600,2024-11-19 05:27:43,37.4505581973717,126.653785120475,112.204728,,,173.4141193944,27.559056,21.7430568,205.955059084,224.428156788,21,4,7.59,173.4141193944,112.204728,21.7430568,205.955059084,-17.448132,-12.974252,-6.487126,218.6,-21.8,-5.2,0,0,1684,1684,1684,720,100,100,100,-46,248.3,-1.6,0,90,3.914,3.824,0,0,0,0,8.911,75.38,173.4141193944,112.204728,43,Detour,
19800,2024-11-19 05:27:43,37.4505436995409,126.653772374804,114.173232,,,175.3826233944,27.559056,22.033859,212.30151598,230.878616312,21,4,7.582,175.3826233944,114.173232,22.033859,212.30151598,-18.119214,-12.526864,-6.487126,216.7,-19.6,-5.9,0,0,1684,1684,1661,910,100,100,97,-17,245.9,-1.6,0,90,3.838,3.758,0,0,0,0,9.327,75.74,175.3826233944,114.173232,43,Detour,
20000,2024-11-19 05:27:43,37.4505287239501,126.653760295429,115.813652,,,177.0230433944,27.559056,21.8996426,218.642395448,237.366805496,21,4,7.582,177.0230433944,115.813652,22.033859,218.642395448,-18.566602,-11.632088,-6.71082,213.9,-13.4,-9,0,0,1684,1684,1663,930,100,100,97,-14,243.3,-1.6,0,90,3.838,3.758,0,0,0,0,9.327,75.74,177.0230433944,115.813652,43,Detour,
20200,2024-11-19 05:27:43,37.4505135182862,126.65374924455,117.782156,,,178.9915473944,27.559056,21.6312098,224.843511132,243.771661344,23,4,7.582,178.9915473944,117.782156,22.033859,224.843511132,-18.790296,-10.737312,-6.039738,210.5,-20.4,0.9,0,0,1684,1684,1632,985,100,100,92,-6,241.6,-1.6,0,90,3.838,3.758,0,0,0,0,9.327,75.74,178.9915473944,117.782156,43,Detour,
20400,2024-11-19 05:27:43,37.4504981054399,126.653738618675,119.75066,,,180.9600513944,27.559056,21.922012,231.024941776,250.18209462,23,4,7.582,180.9600513944,119.75066,22.033859,231.024941776,-19.237684,-10.513618,-6.039738,208.8,-21.3,2.9,0,0,1684,1684,1537,1024,100,100,78,0,240.7,-1.6,0,90,3.838,3.758,0,0,0,0,9.327,75.74,180.9600513944,119.75066,43,Detour,
20600,2024-11-19 05:27:44,37.4504822855622,126.653728076886,121.719164,,,182.9285553944,27.559056,22.0114896,237.30971888,256.711950472,24,4,7.582,182.9285553944,121.719164,22.033859,237.30971888,-19.461378,-10.289924,-6.039738,207.9,-19.5,6.4,0,0,1684,1684,1024,1024,100,100,0,0,240.4,-1.6,0,90,3.838,3.758,0,0,0,0,9.327,75.74,182.9285553944,121.719164,43,Detour,
20800,2024-11-19 05:27:44,37.4504664268249,126.653717581715,123.359584,,,184.5689753944,27.559056,22.0114896,243.608603596,263.24803992,24,4,7.582,184.5689753944,123.359584,22.033859,243.608603596,-19.461378,-10.289924,-5.59235,207.9,-19.7,6.3,0,0,1684,1684,1024,1024,100,100,0,0,240.3,-0.6,0,90,3.862,3.787,0,0,0,0,9.327,75.74,184.5689753944,123.359584,43,Detour,
21000,2024-11-19 05:27:44,37.4504506188723,126.653707200241,124.67192,,,185.8813113944,27.559056,21.7206874,249.88353818,269.75230522,24,4,7.582,185.8813113944,124.67192,22.033859,249.88353818,-19.237684,-10.06623,-4.47388,207.8,-21.7,6.2,0,0,1684,1684,1024,1024,100,100,0,0,240.3,2,0,90,3.862,3.787,0,0,0,0,9.327,75.74,185.8813113944,124.67192,43,Detour,
21200,2024-11-19 05:27:44,37.4504349917502,126.653697135168,125.984256,,,187.1936473944,27.559056,21.4075158,256.05971948,276.155848732,24,4,7.582,187.1936473944,125.984256,22.033859,256.05971948,-19.01399,-9.842536,-2.908022,207.7,-24.1,5.7,0,0,1684,1684,1024,1024,100,100,0,0,240.3,4.9,0,90,3.862,3.787,0,0,0,0,9.327,75.74,187.1936473944,125.984256,43,Detour,
21400,2024-11-19 05:27:44,37.4504194432725,126.653687300683,126.31234,,,187.5217313944,27.559056,21.3180382,262.180454584,282.503617964,26,4,7.582,187.5217313944,126.31234,22.033859,262.180454584,-19.01399,-9.618842,-1.342164,207.3,-25,7.7,0,0,1684,1669,1024,1024,100,98,0,0,240.3,7.7,0,90,3.862,3.787,0,0,0,0,9.327,75.74,187.5217313944,126.31234,43,Detour,
21600,2024-11-19 05:27:45,37.4504038280756,126.653677532974,126.640424,,,187.8498153944,27.559056,21.3180382,268.317593888,288.86483864,26,4,7.582,187.8498153944,126.640424,22.033859,268.317593888,-19.01399,-9.618842,0,207.1,-25,8.3,0,0,1024,1024,1024,1024,0,0,0,0,240.3,7,0,90,3.862,3.787,0,0,0,0,9.327,75.74,187.8498153944,126.640424,43,Detour,
21800,2024-11-19 05:27:45,37.4503880670011,126.65366761341,126.31234,,,187.5217313944,27.559056,21.8996426,274.533801436,295.292988452,26,4,7.77,187.8498153944,126.640424,22.033859,274.533801436,-19.461378,-10.06623,0,207.5,-22.5,7.8,0,0,1024,1024,1024,1024,0,0,0,0,240.3,4.3,0,90,3.92,3.869,0,0,0,0,5.499,75.92,187.5217313944,126.31234,43,Detour,
22000,2024-11-19 05:27:45,37.4503722263572,126.653657476078,126.640424,,,187.8498153944,27.559056,21.810165,280.822843632,301.775600208,26,4,7.77,187.8498153944,126.640424,22.033859,280.822843632,-19.237684,-10.289924,-0.447388,208,5,8.1,0,0,1024,1024,1024,1024,0,0,0,0,240.3,1.4,0,90,3.92,3.869,0,0,0,0,5.499,75.92,187.8498153944,126.640424,43,Detour,
22200,2024-11-19 05:27:45,37.4503574125784,126.653647832296,127.296592,,,188.5059833944,27.559056,19.5061168,286.742791328,307.859589904,26,4,7.77,188.5059833944,127.296592,22.033859,286.742791328,-17.224438,-9.171454,-0.447388,208.9,23.6,2.2,0,0,1024,1024,1024,1024,0,0,0,0,240.3,-1.5,0,90,3.92,3.869,0,0,0,0,5.499,75.92,188.5059833944,127.296592,43,Detour,
22400,2024-11-19 05:27:45,37.4503444075846,126.65363972338,127.624676,,,188.8340673944,27.559056,16.7994194,291.87829018,313.153881412,26,4,7.77,188.8340673944,127.624676,22.033859,291.87829018,-14.987498,-7.605596,0,210,27.8,4.6,0,0,1024,1024,1024,1024,0,0,0,0,240.3,-4.4,0,90,3.92,3.869,0,0,0,0,5.499,75.92,188.8340673944,127.624676,43,Detour,
22600,2024-11-19 05:27:46,37.45033347181,126.653633079878,127.624676,,,188.8340673944,27.559056,13.8019198,296.168644648,317.58367158,26,4,7.77,188.8340673944,127.624676,22.033859,296.168644648,-12.30317,-6.263432,0,210.3,28.4,5.3,0,0,1024,1024,1024,1024,0,0,0,0,240.3,-7.4,0,90,3.92,3.869,0,0,0,0,5.499,75.92,188.8340673944,127.624676,43,Detour,
22800,2024-11-19 05:27:46,37.4503245648188,126.653627635071,127.95276,,,189.1621513944,27.559056,11.0952224,299.672253684,321.19587642,26,4,7.77,189.1621513944,127.95276,22.033859,299.672253684,-9.842536,-5.144962,0,210,29.5,3.8,0,0,1024,1024,1024,1024,0,0,0,0,240.3,-10.3,0,90,3.92,3.869,0,0,0,0,5.499,75.92,189.1621513944,127.95276,43,Detour,
23000,2024-11-19 05:27:46,37.4503176338389,126.653623371607,127.95276,,,189.1621513944,27.559056,8.2990474,302.405193404,324.009852888,26,4,7.77,189.1621513944,127.95276,22.033859,302.405193404,-7.381902,-3.802798,0,209.8,29.6,2.4,0,0,1024,1024,1578,940,0,0,84,-13,240.3,-13.3,0,90,3.92,3.869,0,0,0,0,5.499,75.92,189.1621513944,127.95276,43,Detour,
23200,2024-11-19 05:27:46,37.4503126451508,126.653620283012,128.280844,,,189.4902353944,27.559056,5.7936746,304.376978244,326.038068176,26,4,7.77,189.4902353944,128.280844,22.033859,304.376978244,-5.144962,-2.684328,0,209.7,28.8,1.7,0,0,1024,1024,1684,1024,0,0,100,0,240.3,-16.2,0,90,3.92,3.869,0,0,0,0,5.499,75.92,189.4902353944,128.280844,43,Detour,
23400,2024-11-19 05:27:46,37.4503094682632,126.65361835707,128.280844,,,189.4902353944,27.559056,3.5119958,305.625337864,327.32448554,26,4,7.77,189.4902353944,128.280844,22.033859,305.625337864,-3.131716,-1.565858,0.223694,209.4,27.9,1.2,0,0,1024,1024,1024,1024,0,0,0,0,240.3,-19.2,0,90,3.92,3.869,0,0,0,0,5.499,75.92,189.4902353944,128.280844,43,Detour,
23600,2024-11-19 05:27:47,37.450308035052,126.653617634313,128.280844,,,189.4902353944,27.559056,0.9171454,306.161755204,327.887477684,26,4,7.77,189.4902353944,128.280844,22.033859,306.161755204,-0.894776,-0.223694,-0.671082,209.4,12.1,1.9,0,0,1024,1024,1024,1024,0,0,0,0,240.2,-22.1,0,90,3.92,3.869,0,0,0,0,5.499,75.92,189.4902353944,128.280844,43,Detour,
23800,2024-11-19 05:27:47,37.4503076892226,126.653617665953,128.937012,,,190.1464033944,27.559056,0.223694,306.25329064,328.014118108,26,4,7.829,190.1464033944,128.937012,22.033859,306.25329064,-0.223694,0,-2.23694,208.8,1.5,3.7,0,0,1024,1024,1024,1024,0,0,0,0,240.2,-25,0,90,3.897,3.81,0,0,0,0,4.167,75.92,190.1464033944,128.937012,43,Detour,
24000,2024-11-19 05:27:47,37.4503076951166,126.653617801103,129.59318,,,190.8025713944,27.559056,0,306.226715836,328.053160104,26,5,7.829,190.8025713944,129.59318,22.033859,306.25329064,0,0,-1.342164,208.9,1.9,4.2,0,0,1024,1024,1024,1024,0,0,0,0,240.2,-27.5,0,90,3.897,3.81,0,0,0,0,4.167,75.92,190.8025713944,129.59318,43,Detour,
24200,2024-11-19 05:27:47,37.4503078572713,126.653617916138,129.921264,,,191.1306553944,27.559056,0,306.1597867,328.12008924,26,5,7.829,191.1306553944,129.921264,22.033859,306.25329064,0,0,-0.223694,208.7,-0.4,1.9,0,0,1024,1024,1024,1024,0,0,0,0,240.2,-30.2,0,90,3.897,3.81,0,0,0,0,4.167,75.92,191.1306553944,129.921264,43,Detour,
24400,2024-11-19 05:27:47,37.4503080561608,126.653618071446,129.921264,,,191.1306553944,27.559056,0.223694,306.075141028,328.20539108,26,5,7.829,191.1306553944,129.921264,22.033859,306.25329064,0,0.223694,0,208.8,-1,2.7,0,0,1024,1024,1024,1024,0,0,0,0,240.2,-33.2,0,90,3.897,3.81,0,0,0,0,4.167,75.92,191.1306553944,129.921264,43,Detour,
24600,2024-11-19 05:27:48,37.4503082789693,126.653618209057,129.921264,,,191.1306553944,27.559056,0.223694,305.987214516,328.2972546,26,5,7.829,191.1306553944,129.921264,22.033859,306.25329064,0,0.223694,0,208.8,-1.4,3.3,0,0,1024,1024,1024,1024,0,0,0,0,240.2,-36.1,0,90,3.897,3.81,0,0,0,0,4.167,75.92,191.1306553944,129.921264,43,Detour,
24800,2024-11-19 05:27:48,37.4503085015035,126.65361835025,130.249348,,,191.4587393944,27.559056,0.223694,305.898631836,328.38911812,26,5,7.829,191.4587393944,130.249348,22.033859,306.25329064,0,0.223694,0,208.8,-1.6,4.1,0,0,1024,1024,1024,1024,0,0,0,0,240.2,-39.1,0,90,3.897,3.81,0,0,0,0,4.167,75.92,191.4587393944,130.249348,43,Detour,
25000,2024-11-19 05:27:48,37.4503087438445,126.653618418883,130.249348,,,191.4587393944,27.559056,0.223694,305.817595088,328.4777008,26,5,7.792,191.4587393944,130.249348,22.033859,306.25329064,0,0.223694,0,208.8,-2.6,4.2,0,0,1024,1024,1024,1024,0,0,0,0,240.2,-42,0,90,3.919,3.862,0,0,0,0,4.929,76.1,191.4587393944,130.249348,43,Detour,
25200,2024-11-19 05:27:48,37.4503089635003,126.653618379861,130.577432,,,191.7868233944,27.559056,0,305.763133144,328.5597218,26,5,7.792,191.7868233944,130.577432,22.033859,306.25329064,0,0,0,208.8,-2.5,3.9,0,0,1024,1024,1024,1024,0,0,0,0,240.2,-45,0,90,3.919,3.862,0,0,0,0,4.929,76.1,191.7868233944,130.577432,43,Detour,
25400,2024-11-19 05:27:48,37.4503091456673,126.653618256625,130.905516,,,192.1149073944,27.559056,0,305.734589836,328.63518112,26,5,7.792,192.1149073944,130.905516,22.033859,306.25329064,0,0,0,208.7,-2.3,3.9,0,0,1024,1024,1024,1024,0,0,0,0,240.2,-47.9,0,90,3.919,3.862,0,0,0,0,4.929,76.1,192.1149073944,130.905516,43,Detour,
25600,2024-11-19 05:27:49,37.4503092797224,126.653618063461,130.577432,,,191.7868233944,27.559056,0,305.732621332,328.71064044,26,5,7.792,192.1149073944,130.905516,22.033859,306.25329064,0,0,0.223694,208.8,-2.4,3.4,0,0,1024,1024,1024,1024,0,0,0,0,240.2,-50.9,0,90,3.919,3.862,0,0,0,0,4.929,76.1,191.7868233944,130.577432,43,Detour,
25800,2024-11-19 05:27:49,37.4503093680645,126.653617835635,130.577432,,,191.7868233944,27.559056,0,305.750009784,328.78281892,26,5,7.792,192.1149073944,130.905516,22.033859,306.25329064,0,0,0,208.6,-2.7,4.1,0,0,1024,1027,1024,1024,0,0,0,0,240.2,-53.8,0,90,3.919,3.862,0,0,0,0,4.929,76.1,191.7868233944,130.577432,43,Detour,
26000,2024-11-19 05:27:49,37.4503094405064,126.653617583983,130.249348,,,191.4587393944,27.559056,0,305.77592842,328.86155908,26,5,7.79,192.1149073944,130.905516,22.033859,306.25329064,0,0,0,208.7,-1.4,4,0,0,1024,1024,1024,1024,0,0,0,0,240.2,-56.8,0,90,3.919,3.865,0,0,0,0,4.424,76.1,191.4587393944,130.249348,43,Detour,
26200,2024-11-19 05:27:49,37.4503095067115,126.653617336603,130.249348,,,191.4587393944,27.559056,0,305.803159392,328.9370184,26,5,7.79,192.1149073944,130.905516,22.033859,306.25329064,0,0,0,208.7,-1.8,3.4,0,0,1024,1024,1024,1024,0,0,0,0,240.2,-59.7,0,90,3.919,3.865,0,0,0,0,4.424,76.1,191.4587393944,130.249348,43,Detour,
26400,2024-11-19 05:27:49,37.4503095339886,126.653617123065,129.921264,,,191.1306553944,27.559056,0,305.83498354,328.99935436,26,5,7.79,192.1149073944,130.905516,22.033859,306.25329064,0,0,0,208.6,-1.7,4.4,0,0,1024,1024,1024,1024,0,0,0,0,240.2,-64.2,0,90,3.919,3.865,0,0,0,0,4.424,76.1,191.1306553944,129.921264,43,Detour,
26600,2024-11-19 05:27:50,37.450309539677,126.653616910089,129.921264,,,191.1306553944,27.559056,0,305.8727132,329.06169032,26,5,7.79,192.1149073944,130.905516,22.033859,306.25329064,0,0,0,208.7,-2.1,4.9,0,0,1024,1024,1024,1024,0,0,0,0,240.2,-65.7,0,90,3.919,3.865,0,0,0,0,4.424,76.1,191.1306553944,129.921264,43,Detour,
26800,2024-11-19 05:27:50,37.4503095625678,126.65361666258,129.921264,,,191.1306553944,27.559056,0,305.91208328,329.1338688,26,5,7.79,192.1149073944,130.905516,22.033859,306.25329064,0,0,0,208.8,-1,3.9,0,0,1028,1024,1024,1024,1,0,0,0,240.2,-68.6,0,90,3.919,3.865,0,0,0,0,4.424,76.1,191.1306553944,129.921264,43,Detour,
27000,2024-11-19 05:27:50,37.4503096309661,126.653616442524,129.59318,,,190.8025713944,27.559056,0,305.933736824,329.1994856,26,5,7.782,192.1149073944,130.905516,22.033859,306.25329064,0,0,0,208.7,-1.7,3.1,0,0,1024,1024,1024,1024,0,0,0,0,240.2,-71.6,0,90,3.921,3.868,0,0,0,0,4.462,76.1,190.8025713944,129.59318,43,Detour,
27200,2024-11-19 05:27:50,37.4503096411093,126.653616306295,129.59318,,,190.8025713944,27.559056,0,305.956046536,329.24213652,26,5,7.782,192.1149073944,130.905516,22.033859,306.25329064,0,0,0,208.6,-2.7,3.9,0,0,1024,1024,1024,1024,0,0,0,0,240.2,-74.5,0,90,3.921,3.868,0,0,0,0,4.462,76.1,190.8025713944,129.59318,43,Detour,
27400,2024-11-19 05:27:50,37.4503095691472,126.653616261576,129.59318,,,190.8025713944,27.559056,0,305.98426176,329.26838324,26,5,7.782,192.1149073944,130.905516,22.033859,306.25329064,0,0,0,208.7,-1.4,6.1,0,0,1024,1024,1024,1024,0,0,0,0,240.2,-77.5,0,90,3.921,3.868,0,0,0,0,4.462,76.1,190.8025713944,129.59318,43,Detour,
27600,2024-11-19 05:27:51,37.4503095416646,126.653616163202,129.59318,,,190.8025713944,27.559056,0,306.010180396,329.30119164,26,5,7.782,192.1149073944,130.905516,22.033859,306.25329064,0,0,0,208.7,-1.3,4.8,0,0,1024,1024,1024,1024,0,0,0,0,240.2,-80.4,0,90,3.921,3.868,0,0,0,0,4.462,76.1,190.8025713944,129.59318,43,Detour,
27800,2024-11-19 05:27:51,37.4503095367985,126.653616032498,129.265096,,,190.4744873944,27.559056,0,306.035770948,329.33728088,26,5,7.782,192.1149073944,130.905516,22.033859,306.25329064,0,0,0,208.8,-1.2,3.7,0,0,1039,1024,1024,1024,2,0,0,0,240.2,-83.4,0,90,3.921,3.868,0,0,0,0,4.462,76.1,190.4744873944,129.265096,43,Detour,
28000,2024-11-19 05:27:51,37.4503095251475,126.653615959635,129.265096,,,190.4744873944,27.559056,0,306.052503232,329.36024676,26,5,7.782,192.1149073944,130.905516,22.033859,306.25329064,0,0,0,208.7,-1,4.2,0,0,1046,1024,1024,1024,3,0,0,0,240.2,-86.3,0,90,3.921,3.864,0,0,0,0,4.462,76.1,190.4744873944,129.265096,43,Detour,
28200,2024-11-19 05:27:51,37.4503095472844,126.653615924715,129.265096,,,190.4744873944,27.559056,0,306.052831316,329.37337012,26,5,7.782,192.1149073944,130.905516,22.033859,306.25329064,0,0,0,208.6,-2.3,4.1,0,0,1061,1024,1024,1024,6,0,0,0,240.2,-89.3,0,90,3.921,3.864,0,0,0,0,4.462,76.1,190.4744873944,129.265096,43,Detour,
28400,2024-11-19 05:27:51,37.4503095468732,126.653615901837,129.265096,,,190.4744873944,27.559056,0,306.057096408,329.3799318,26,5,7.782,192.1149073944,130.905516,22.033859,306.25329064,0,0,0,208.8,-2.2,4.4,0,0,1155,1024,1024,1024,20,0,0,0,240.2,-90,0,90,3.921,3.864,0,0,0,0,4.462,76.1,190.4744873944,129.265096,43,Detour,
28600,2024-11-19 05:27:52,37.4503094633286,126.653615891305,129.265096,,,190.4744873944,27.559056,0,306.08268696,329.40945936,26,5,7.782,192.1149073944,130.905516,22.033859,306.25329064,0,0,0,208.8,-1.5,4.9,0,0,1122,1024,1024,1024,15,0,0,0,240.2,-90,0,90,3.921,3.864,0,0,0,0,4.462,76.1,190.4744873944,129.265096,43,Detour,
28800,2024-11-19 05:27:52,37.4503093458591,126.653615916427,129.265096,,,190.4744873944,27.559056,0,306.110902184,329.45211028,26,5,7.782,192.1149073944,130.905516,22.033859,306.25329064,0,0,0,208.7,-2.3,5.5,0,0,1024,1024,1496,1024,0,0,72,0,240.2,-90,0,90,3.921,3.864,0,0,0,0,4.462,76.1,190.4744873944,129.265096,43,Detour,
29000,2024-11-19 05:27:52,37.4503091501221,126.653615911161,129.265096,,,190.4744873944,27.559056,0.223694,306.167004548,329.52428876,26,5,7.78,192.1149073944,130.905516,22.033859,306.25329064,-0.223694,0,-0.223694,208.7,-2.8,5.4,0,0,1024,1024,1684,709,0,0,100,-48,240.2,-90,0,89,3.918,3.851,0,0,0,0,4.472,76.1,190.4744873944,129.265096,43,Detour,
29200,2024-11-19 05:27:52,37.4503088153954,126.653615817838,129.265096,,,190.4744873944,27.559056,0.447388,306.278225024,329.64896068,26,5,7.78,192.1149073944,130.905516,22.033859,306.278225024,-0.447388,0,0,208.8,-0.9,4.4,0,0,1151,1058,1513,1024,19,5,74,0,240.2,-90,0,89,3.918,3.851,0,0,0,0,4.472,76.1,190.4744873944,129.265096,43,Detour,
29400,2024-11-19 05:27:52,37.450308441261,126.653615766471,129.59318,,,190.8025713944,27.559056,0.447388,306.39272634,329.78675596,26,5,7.78,192.1149073944,130.905516,22.033859,306.39272634,-0.447388,0,-1.565858,208.6,0.4,4,0,0,1684,992,1024,1024,100,-5,0,0,239.3,-90,0,89,3.918,3.851,0,0,0,0,4.472,76.1,190.8025713944,129.59318,43,Detour,
29600,2024-11-19 05:27:53,37.4503081678735,126.653615794356,130.249348,,,191.4587393944,27.559056,0,306.464248652,329.888462,26,5,7.78,192.1149073944,130.905516,22.033859,306.464248652,0,0,-3.131716,207.4,1.1,5.8,0,0,1684,1024,1024,1024,100,0,0,0,238.3,-89.9,0,89,3.918,3.851,0,0,0,0,4.472,76.1,191.4587393944,130.249348,43,Detour,
29800,2024-11-19 05:27:53,37.450307926492,126.653615670041,131.561684,,,192.7710753944,27.559056,0.4921268,306.55512792,329.98360636,26,5,7.78,192.7710753944,131.561684,22.033859,306.55512792,-0.447388,-0.223694,-4.026492,205.9,-21.6,6.2,0,0,1684,992,1024,1024,100,-5,0,0,237.8,-89.9,0,89,3.918,3.851,0,0,0,0,4.472,76.1,192.7710753944,131.561684,43,Detour,
30000,2024-11-19 05:27:53,37.4503070147662,126.653615033484,132.545936,,,193.7553273944,27.559056,1.4987498,306.928815596,330.36090296,26,5,7.693,193.7553273944,132.545936,22.033859,306.928815596,-1.342164,-0.671082,-2.460634,205.8,-27.7,3.7,0,0,1684,767,1024,1024,100,-39,0,0,237.7,-89.9,0,89,3.888,3.843,0,0,0,0,5.208,76.28,193.7553273944,132.545936,43,Detour,
30200,2024-11-19 05:27:53,37.4503051047545,126.653613835522,132.87402,,,194.0834113944,27.559056,2.9974996,307.68701772,331.14174288,26,5,7.693,194.0834113944,132.87402,22.033859,307.68701772,-2.684328,-1.342164,-0.894776,205.7,-27.7,2.3,0,0,1684,466,1024,1024,100,-85,0,0,237.6,-89.9,0,89,3.888,3.843,0,0,0,0,5.208,76.28,194.0834113944,132.87402,43,Detour,
30400,2024-11-19 05:27:53,37.4503020933113,126.653612137233,133.202104,,,194.4114953944,27.559056,4.4067718,308.847122744,332.34581116,26,5,7.693,194.4114953944,133.202104,22.033859,308.847122744,-4.026492,-1.789552,0,205.5,-28.8,2.6,0,0,1684,482,1024,1024,100,-82,0,0,237.6,-90,0,89,3.888,3.843,0,0,0,0,5.208,76.28,194.4114953944,133.202104,43,Detour,
30600,2024-11-19 05:27:54,37.4502977559146,126.653609735352,133.202104,,,194.4114953944,27.559056,6.3081708,310.510836708,334.07481384,26,5,7.693,194.4114953944,133.202104,22.033859,310.510836708,-5.816044,-2.460634,0.223694,205.1,-28.9,4.3,0,0,1684,454,1024,1024,100,-86,0,0,237.7,-89.9,0,89,3.888,3.843,0,0,0,0,5.208,76.28,194.4114953944,133.202104,43,Detour,
30800,2024-11-19 05:27:54,37.4502919897615,126.65360644591,132.87402,,,194.0834113944,27.559056,8.3214168,312.74115174,336.3845252,26,5,7.693,194.4114953944,133.202104,22.033859,312.74115174,-7.605596,-3.35541,0.223694,205,-29,5.6,0,0,1684,489,1024,1024,100,-81,0,0,237.7,-89.9,0,89,3.888,3.843,0,0,0,0,5.208,76.28,194.0834113944,132.87402,43,Detour,
31000,2024-11-19 05:27:54,37.4502848156866,126.653602200749,132.87402,,,194.0834113944,27.559056,10.401771,315.545285688,339.27494524,26,5,7.81,194.4114953944,133.202104,22.033859,315.545285688,-9.395148,-4.47388,0.223694,204.7,-28.9,6.6,0,0,1684,533,1024,1024,100,-74,0,0,237.7,-90,0,89,3.909,3.847,0,0,0,0,4.634,76.28,194.0834113944,132.87402,43,Detour,
31200,2024-11-19 05:27:54,37.45027632073,126.653597000515,132.87402,,,194.0834113944,27.559056,12.2136924,318.899944588,342.71982724,26,5,7.81,194.4114953944,133.202104,22.033859,318.899944588,-10.961006,-5.368656,0,204.9,-29,6,0,0,1684,881,808,1024,100,-22,-33,0,237.7,-90,0,89,3.909,3.847,0,0,0,0,4.634,76.28,194.0834113944,132.87402,43,Detour,
31400,2024-11-19 05:27:54,37.4502665877508,126.653590922692,132.87402,,,194.0834113944,27.559056,13.7124422,322.76739878,346.68308196,26,5,7.81,194.4114953944,133.202104,22.033859,322.76739878,-12.30317,-6.039738,0,204.7,-28.9,6.3,0,0,1684,1024,1024,1024,100,0,0,0,237.7,-89.9,0,89,3.909,3.847,0,0,0,0,4.634,76.28,194.0834113944,132.87402,43,Detour,
31600,2024-11-19 05:27:55,37.4502557471033,126.653584042169,132.87402,,,194.0834113944,27.559056,15.3006696,327.097779496,351.11221596,26,5,7.81,194.4114953944,133.202104,22.033859,327.097779496,-13.645334,-6.934514,0,205.2,-23.2,5.6,0,0,1530,1024,1024,1024,77,0,0,0,237.5,-90,0,89,3.909,3.847,0,0,0,0,4.634,76.28,194.0834113944,132.87402,43,Detour,
31800,2024-11-19 05:27:55,37.4502442539993,126.653576773333,132.87402,,,194.0834113944,27.559056,15.7033188,331.68636232,355.80381716,26,5,7.81,194.4114953944,133.202104,22.033859,331.68636232,-14.092722,-6.934514,1.11847,205.7,-18.8,2.6,0,0,1024,1024,1024,1024,0,0,0,0,237.2,-90,0,89,3.909,3.847,0,0,0,0,4.634,76.28,194.0834113944,132.87402,43,Detour,
32000,2024-11-19 05:27:55,37.4502324740063,126.653569515547,132.217852,,,193.4272433944,27.559056,16.105968,336.35827848,360.59056272,26,5,7.81,194.4114953944,133.202104,22.033859,336.35827848,-14.54011,-6.934514,2.013246,205.5,-13.4,3.5,0,0,1024,1024,1024,1024,0,0,0,0,237,-90,0,89,3.909,3.847,0,0,0,0,4.634,76.28,193.4272433944,132.217852,43,Detour,
32200,2024-11-19 05:27:55,37.450220886255,126.653562410825,131.889768,,,193.0991593944,27.559056,15.211192,340.95145448,365.29200644,26,5,7.728,194.4114953944,133.202104,22.033859,340.95145448,-13.645334,-6.71082,0.447388,205.6,20,2.7,0,0,1024,1024,1024,1024,0,0,0,0,236.9,-90,0,89,3.942,3.889,0,0,0,0,5.231,76.28,193.0991593944,131.889768,43,Detour,
32400,2024-11-19 05:27:55,37.4502107890104,126.653556213434,131.889768,,,193.0991593944,27.559056,12.9071438,344.95736012,369.3897756,26,5,7.728,194.4114953944,133.202104,22.033859,344.95736012,-11.632088,-5.59235,0.223694,205.6,26.2,0.4,0,0,681,364,1024,1024,-52,-100,0,0,236.9,-90,0,89,3.942,3.889,0,0,0,0,5.231,76.28,193.0991593944,131.889768,43,Detour,
32600,2024-11-19 05:27:56,37.4502024644327,126.653551222163,131.561684,,,192.7710753944,27.559056,10.2004464,348.24148096,372.7526366,26,5,7.728,194.4114953944,133.202104,22.033859,348.24148096,-9.171454,-4.47388,0,206.1,29.1,0.9,0,0,706,364,1024,1024,-48,-100,0,0,236.9,-90,0,89,3.942,3.889,0,0,0,0,5.231,76.28,192.7710753944,131.561684,43,Detour,
32800,2024-11-19 05:27:56,37.4501960879037,126.653547487343,131.561684,,,192.7710753944,27.559056,7.4042714,350.74148104,375.31825348,26,5,7.728,194.4114953944,133.202104,22.033859,350.74148104,-6.71082,-3.131716,0,206.1,29.5,0.5,0,0,1024,1024,1024,1024,0,0,0,0,236.9,-89.9,0,89,3.942,3.889,0,0,0,0,5.231,76.28,192.7710753944,131.561684,43,Detour,"신호 약함. 안테나를 조정해주세요 RC 신호 차단 가능성 있음. 최적의 신호 강도 사용 또는 고공비행 경우, RC를 기체에 향하게 하고 안테나 조정 필요 (Code: 80002)"
33000,2024-11-19 05:27:56,37.4501915726578,126.653544942672,131.561684,,,192.7710753944,27.559056,5.1002232,352.4934496,377.12271548,26,5,7.728,194.4114953944,133.202104,22.033859,352.4934496,-4.697574,-2.013246,0.223694,206,30.1,0,0,0,1024,1024,1024,1024,0,0,0,0,236.9,-90,0,89,3.942,3.889,0,0,0,0,5.231,76.28,192.7710753944,131.561684,43,Detour,"RC 신호 차단 가능성 있음. 최적의 신호 강도 사용 또는 고공비행 경우, RC를 기체에 향하게 하고 안테나 조정 필요 (Code: 80002). 이미지 전송 신호 차단 가능성 있음. 최적의 신호 강도 사용 또는 고공비행 경우, RC를 기체에 향하게 하고 안테나 조정 필요 (Code: 80004)"
33200,2024-11-19 05:27:56,37.4501888803836,126.65354369166,131.561684,,,192.7710753944,27.559056,2.6172198,353.49082496,378.17258428,26,5,7.81,194.4114953944,133.202104,22.033859,353.49082496,-2.460634,-0.894776,0.223694,206.9,28.2,4.2,0,0,1024,1024,1024,1024,0,0,0,0,236.9,-90,0,89,3.929,3.874,0,0,0,0,3.687,76.28,192.7710753944,131.561684,43,Detour,"RC 신호 차단 가능성 있음. 최적의 신호 강도 사용 또는 고공비행 경우, RC를 기체에 향하게 하고 안테나 조정 필요 (Code: 17000002). 이미지 전송 신호 차단 가능성 있음. 최적의 신호 강도 사용 또는 고공비행 경우, RC를 기체에 향하게 하고 안테나 조정 필요 (Code: 80004)"
33400,2024-11-19 05:27:56,37.4501878479671,126.65354343854,131.561684,,,192.7710753944,27.559056,0.671082,353.83531316,378.55316172,26,5,7.81,194.4114953944,133.202104,22.033859,353.83531316,-0.671082,0,0,205.7,7,4.6,0,0,1024,1024,1024,1024,0,0,0,0,236.9,-90,0,89,3.929,3.874,0,0,0,0,3.687,76.28,192.7710753944,131.561684,43,Detour,
